index,_id,codigo_ibge,nome,latitude,longitude,capital,codigo_uf,siafi_id,ddd,fuso_horario,uf,nome_uf
8,6494be310417200165cee9df,2900108,Abaíra,-13.2488,-41.6619,0,29,3301,77,America/Sao_Paulo,BA,Bahia
58,6494be310417200165cef3fc,2600609,Alagoinha,-8.4665,-36.7788,0,26,2311,87,America/Sao_Paulo,PE,Pernambuco
108,6494be310417200165cef86d,4300554,Alto Alegre,-28.7769,-52.9893,0,43,8495,54,America/Sao_Paulo,RS,Rio Grande do Sul
158,6494be310417200165ceed87,2100600,Amarante do Maranhão,-5.56913,-46.7473,0,21,711,99,America/Sao_Paulo,MA,Maranhão
208,6494be310417200165ceec97,5201207,Anhanguera,-18.3339,-48.2204,0,52,9223,64,America/Sao_Paulo,GO,Goiás
258,6494be310417200165cee9f6,2902005,Aracatu,-14.428,-41.4648,0,29,3339,77,America/Sao_Paulo,BA,Bahia
308,6494be310417200165cef877,4300901,Aratiba,-27.3978,-52.2975,0,43,8517,54,America/Sao_Paulo,RS,Rio Grande do Sul
358,6494be310417200165cef878,4301008,Arroio do Meio,-29.4014,-51.9557,0,43,8519,51,America/Sao_Paulo,RS,Rio Grande do Sul
408,6494be310417200165ceed7d,2100055,Açailândia,-4.94714,-47.5004,0,21,961,99,America/Sao_Paulo,MA,Maranhão
458,6494be310417200165cee998,1300409,Barcelos,-0.983373,-62.9311,0,13,209,97,America/Porto_Velho,AM,Amazonas
508,6494be310417200165ceea07,2903276,Barrocas,-11.5272,-39.0776,0,29,1110,75,America/Sao_Paulo,BA,Bahia
558,6494be310417200165cef330,2501906,Belém,-6.74261,-35.5166,0,25,1939,83,America/Sao_Paulo,PB,Paraíba
608,6494be310417200165cef857,1400100,Boa Vista,2.82384,-60.6753,1,14,301,95,America/Porto_Velho,RR,Roraima
658,6494be310417200165cefc16,3507100,Bom Jesus dos Perdões,-23.1356,-46.4675,0,35,6241,11,America/Sao_Paulo,SP,São Paulo
708,6494be310417200165cefc1d,3507605,Bragança Paulista,-22.9527,-46.5419,0,35,6251,11,America/Sao_Paulo,SP,São Paulo
758,6494be310417200165ceea17,2904704,Buerarema,-14.9595,-39.3028,0,29,3393,73,America/Sao_Paulo,BA,Bahia
808,6494be310417200165ceecb2,5204201,Cachoeira de Goiás,-16.6635,-50.646,0,52,9283,64,America/Sao_Paulo,GO,Goiás
858,6494be310417200165cefc30,3509304,Cajobi,-20.8773,-48.8063,0,35,6287,17,America/Sao_Paulo,SP,São Paulo
908,6494be310417200165cef5c6,4103958,Campina do Simão,-25.0802,-51.8237,0,41,840,42,America/Sao_Paulo,PR,Paraná
958,6494be310417200165cef41c,2603603,Camutanga,-7.40545,-35.2664,0,26,2371,81,America/Sao_Paulo,PE,Pernambuco
1008,6494be310417200165cefc3d,3510302,Capela do Alto,-23.4685,-47.7388,0,35,6307,15,America/Sao_Paulo,SP,São Paulo
1058,6494be310417200165cef4e3,2202539,Caraúbas do Piauí,-3.47525,-41.8425,0,22,298,86,America/Sao_Paulo,PI,Piauí
1108,6494be310417200165ceeef6,3114709,Carvalhópolis,-21.7735,-45.8421,0,31,4293,35,America/Sao_Paulo,MG,Minas Gerais
1158,6494be310417200165cef4e6,2202653,Caxingó,-3.41904,-41.8955,0,22,302,86,America/Sao_Paulo,PI,Piauí
1208,6494be310417200165cef8cb,4305355,Charqueadas,-29.9625,-51.6289,0,43,8693,51,America/Sao_Paulo,RS,Rio Grande do Sul
1258,6494be310417200165ceedb9,2103505,Colinas,-6.03199,-44.2543,0,21,767,99,America/Sao_Paulo,MA,Maranhão
1308,6494be310417200165ceea47,2908705,Condeúba,-14.9022,-41.9718,0,29,3473,77,America/Sao_Paulo,BA,Bahia
1358,6494be310417200165ceea4c,2909208,Coronel João Sá,-10.2847,-37.9198,0,29,3483,75,America/Sao_Paulo,BA,Bahia
1408,6494be310417200165ceecce,5206305,Cristianópolis,-17.1987,-48.7034,0,52,9327,64,America/Sao_Paulo,GO,Goiás
1458,6494be310417200165cefaa4,4204806,Curitibanos,-27.2824,-50.5816,0,42,8093,49,America/Sao_Paulo,SC,Santa Catarina
1508,6494be310417200165cef8e4,4306320,Derrubadas,-27.2642,-53.8645,0,43,6073,55,America/Sao_Paulo,RS,Rio Grande do Sul
1558,6494be310417200165ceef52,3122504,Dom Cavati,-19.3735,-42.1121,0,31,4449,33,America/Sao_Paulo,MG,Minas Gerais
1608,6494be310417200165ceecd9,5207402,Edéia,-17.3406,-49.9295,0,52,9349,64,America/Sao_Paulo,GO,Goiás
1658,6494be310417200165ceef65,3124203,Espera Feliz,-20.6508,-41.9119,0,31,4483,32,America/Sao_Paulo,MG,Minas Gerais
1708,6494be310417200165cef905,4307906,Farroupilha,-29.2227,-51.3419,0,43,8655,54,America/Sao_Paulo,RS,Rio Grande do Sul
1758,6494be310417200165cefc7f,3515905,Floreal,-20.6752,-50.1513,0,35,6419,17,America/Sao_Paulo,SP,São Paulo
1808,6494be310417200165cef60a,4108403,Francisco Beltrão,-26.0817,-53.0535,0,41,7565,46,America/Sao_Paulo,PR,Paraná
1858,6494be310417200165ceea67,2911253,Gavião,-11.4688,-39.7757,0,29,3093,75,America/Sao_Paulo,BA,Bahia
1908,6494be310417200165cef7a8,2404309,Governador Dix-Sept Rosado,-5.44887,-37.5183,0,24,1683,84,America/Sao_Paulo,RN,Rio Grande do Norte
1958,6494be310417200165ceecea,5209200,Guapó,-16.8297,-49.5345,0,52,9381,62,America/Sao_Paulo,GO,Goiás
2008,6494be310417200165cef22a,5104203,Guiratinga,-16.346,-53.7575,0,51,9083,66,America/Porto_Velho,MT,Mato Grosso
2058,6494be310417200165ceefa4,3129608,Ibiaí,-16.8591,-44.9046,0,31,4591,38,America/Sao_Paulo,MG,Minas Gerais
2108,6494be310417200165ceedd4,2105153,Igarapé do Meio,-3.65771,-45.2114,0,21,170,98,America/Sao_Paulo,MA,Maranhão
2158,6494be310417200165cefcb5,3520608,Indiana,-22.1738,-51.2555,0,35,6513,18,America/Sao_Paulo,SP,São Paulo
2208,6494be310417200165cefacb,4207650,Iporã do Oeste,-26.9854,-53.5355,0,42,9951,49,America/Sao_Paulo,SC,Santa Catarina
2258,6494be310417200165ceea8f,2914802,Itabuna,-14.7876,-39.2781,0,29,3597,73,America/Sao_Paulo,BA,Bahia
2308,6494be310417200165ceea9b,2915908,Itanagra,-12.2614,-38.0436,0,29,3619,75,America/Sao_Paulo,BA,Bahia
2358,6494be310417200165ceea9e,2916203,Itapé,-14.8876,-39.4239,0,29,3625,73,America/Sao_Paulo,BA,Bahia
2408,6494be310417200165cef2c1,1503705,Itupiranga,-5.13272,-49.3358,0,15,473,94,America/Sao_Paulo,PA,Pará
2458,6494be310417200165cef942,4311106,Jaguari,-29.4936,-54.703,0,43,8723,55,America/Sao_Paulo,RS,Rio Grande do Sul
2508,6494be310417200165cefadd,4208955,Jardinópolis,-26.7191,-52.8625,0,42,5587,49,America/Sao_Paulo,SC,Santa Catarina
2558,6494be310417200165cef519,2205458,Joca Marques,-3.4804,-42.4255,0,22,328,86,America/Sao_Paulo,PI,Piauí
2608,6494be310417200165ceeff9,3136801,Juramento,-16.8473,-43.5865,0,31,4735,38,America/Sao_Paulo,MG,Minas Gerais
2658,6494be310417200165cef949,4311304,Lagoa Vermelha,-28.2093,-51.5248,0,43,8727,54,America/Sao_Paulo,RS,Rio Grande do Sul
2708,6494be310417200165cee9d4,1600279,Laranjal do Jari,-0.804911,-52.453,0,16,613,96,America/Sao_Paulo,AP,Amapá
2758,6494be310417200165cef010,3138658,Lontra,-15.9013,-44.306,0,31,2695,38,America/Sao_Paulo,MG,Minas Gerais
2808,6494be310417200165cef45e,2609105,Machados,-7.68827,-35.5114,0,26,2481,81,America/Sao_Paulo,PE,Pernambuco
2858,6494be310417200165cee9b7,1302702,Manicoré,-5.80462,-61.2895,0,13,257,97,America/Porto_Velho,AM,Amazonas
2908,6494be310417200165cefaf4,4210555,Marema,-26.8024,-52.6264,0,42,9963,49,America/Sao_Paulo,SC,Santa Catarina
2958,6494be310417200165cef667,4115606,Matelândia,-25.2496,-53.9935,0,41,7699,45,America/Sao_Paulo,PR,Paraná
3008,6494be310417200165cefd15,3529609,Meridiano,-20.3579,-50.1811,0,35,6693,17,America/Sao_Paulo,SP,São Paulo
3058,6494be310417200165cef03c,3142205,Miraí,-21.2021,-42.6122,0,31,4843,32,America/Sao_Paulo,MG,Minas Gerais
3108,6494be310417200165cefd2a,3531605,Monte Castelo,-21.2981,-51.5679,0,35,6733,18,America/Sao_Paulo,SP,São Paulo
3158,6494be310417200165ceed1e,5213905,Mossâmedes,-16.124,-50.2136,0,52,9475,64,America/Sao_Paulo,GO,Goiás
3208,6494be310417200165cef393,2509909,Natuba,-7.63514,-35.5586,0,25,2099,83,America/Sao_Paulo,PB,Paraíba
3258,6494be310417200165ceed26,5214804,Nova Aurora,-18.0597,-48.2552,0,52,9493,64,America/Sao_Paulo,GO,Goiás
3308,6494be310417200165cef246,5108907,Nova Maringá,-13.0136,-57.0908,0,51,111,66,America/Porto_Velho,MT,Mato Grosso
3358,6494be310417200165cee9bd,1303304,Novo Aripuanã,-5.12593,-60.3732,0,13,267,97,America/Porto_Velho,AM,Amazonas
3408,6494be310417200165ceeafa,2923100,Olindina,-11.3497,-38.3379,0,29,3763,75,America/Sao_Paulo,BA,Bahia
3458,6494be310417200165cefd52,3534906,Pacaembu,-21.5627,-51.2654,0,35,6799,18,America/Sao_Paulo,SP,São Paulo
3508,6494be310417200165ceed35,5215801,Palmelo,-17.3258,-48.426,0,52,9513,64,America/Sao_Paulo,GO,Goiás
3558,6494be310417200165cef2e0,1505536,Parauapebas,-6.06781,-49.9037,0,15,595,94,America/Sao_Paulo,PA,Pará
3608,6494be310417200165cef39d,2510808,Patos,-7.01743,-37.2747,0,25,2117,83,America/Sao_Paulo,PB,Paraíba
3658,6494be310417200165cef7e0,2409605,Pedra Preta,-5.57352,-36.1084,0,24,1791,84,America/Sao_Paulo,RN,Rio Grande do Norte
3708,6494be310417200165ceec0b,2310803,Pereiro,-6.03576,-38.4624,0,23,1517,88,America/Sao_Paulo,CE,Ceará
3758,6494be310417200165cef0a5,3150539,Pingo-d'Água,-19.7287,-42.4095,0,31,688,33,America/Sao_Paulo,MG,Minas Gerais
3808,6494be310417200165cefd81,3539400,Piratininga,-22.4142,-49.1339,0,35,6889,14,America/Sao_Paulo,SP,São Paulo
3858,6494be310417200165cefd89,3540200,Pontal,-21.0216,-48.0423,0,35,6905,16,America/Sao_Paulo,SP,São Paulo
3908,6494be310417200165cef9ab,4315057,Porto Mauá,-27.5796,-54.6657,0,43,6065,55,America/Sao_Paulo,RS,Rio Grande do Sul
3958,6494be310417200165cefd93,3540903,Pradópolis,-21.3626,-48.0679,0,35,6919,16,America/Sao_Paulo,SP,São Paulo
4008,6494be310417200165cef9b1,4315172,Protásio Alves,-28.7572,-51.4757,0,43,7359,54,America/Sao_Paulo,RS,Rio Grande do Sul
4058,6494be310417200165ceec17,2311504,Quixeré,-5.07148,-37.9802,0,23,1531,88,America/Sao_Paulo,CE,Ceará
4108,6494be310417200165cef3b7,2512788,Riacho de Santo Antônio,-7.68023,-36.157,0,25,508,83,America/Sao_Paulo,PB,Paraíba
4158,6494be310417200165cef6c5,4122206,Rio Branco do Sul,-25.1892,-49.3115,0,41,7821,41,America/Sao_Paulo,PR,Paraná
4208,6494be310417200165cefebb,1718709,Rio dos Bois,-9.34425,-48.5245,0,17,359,63,America/Sao_Paulo,TO,Tocantins
4258,6494be310417200165cef0e8,3156700,Sabará,-19.884,-43.8263,0,31,5133,31,America/Sao_Paulo,MG,Minas Gerais
4308,6494be310417200165cefdc8,3545605,Santa Adélia,-21.2427,-48.8063,0,35,7013,17,America/Sao_Paulo,SP,São Paulo
4358,6494be310417200165cefebf,1718865,Santa Fé do Araguaia,-7.15803,-48.7165,0,17,195,63,America/Sao_Paulo,TO,Tocantins
4408,6494be310417200165cefec0,1718881,Santa Maria do Tocantins,-8.8046,-47.7887,0,17,361,63,America/Sao_Paulo,TO,Tocantins
4458,6494be310417200165cee9db,1600600,Santana,-0.045434,-51.1729,0,16,615,96,America/Sao_Paulo,AP,Amapá
4508,6494be310417200165cefde1,3548005,Santo Antônio de Posse,-22.6029,-46.9192,0,35,7061,19,America/Sao_Paulo,SP,São Paulo
4558,6494be310417200165cef156,3165503,Sardoá,-18.7828,-42.3629,0,31,5309,33,America/Sao_Paulo,MG,Minas Gerais
4608,6494be310417200165cef76f,3305554,Seropédica,-22.7526,-43.7155,0,33,786,21,America/Sao_Paulo,RJ,Rio de Janeiro
4658,6494be310417200165cefa14,4320602,Severiano de Almeida,-27.4362,-52.1217,0,43,8913,54,America/Sao_Paulo,RS,Rio Grande do Sul
4708,6494be310417200165cefe0f,3552304,Sud Mennucci,-20.6872,-50.9238,0,35,7147,18,America/Sao_Paulo,SP,São Paulo
4758,6494be310417200165cef3c9,2513943,São Domingos do Cariri,-7.63273,-36.4374,0,25,520,83,America/Sao_Paulo,PB,Paraíba
4808,6494be310417200165cef56a,2209757,São Gonçalo do Gurguéia,-10.0319,-45.3092,0,22,382,89,America/Sao_Paulo,PI,Piauí
4858,6494be310417200165cef491,2613602,São José do Egito,-7.46945,-37.274,0,26,2571,87,America/Sao_Paulo,PE,Pernambuco
4908,6494be310417200165cef12f,3162450,São João das Missões,-14.8859,-44.0922,0,31,718,38,America/Sao_Paulo,MG,Minas Gerais
4958,6494be310417200165cef6ef,4125555,São Manoel do Paraná,-23.3941,-52.6454,0,41,5515,44,America/Sao_Paulo,PR,Paraná
5008,6494be310417200165cef145,3164100,São Pedro do Suaçuí,-18.3609,-42.5981,0,31,5281,33,America/Sao_Paulo,MG,Minas Gerais
5058,6494be310417200165ceee3e,2111706,São Vicente Ferrer,-2.89487,-44.8681,0,21,927,98,America/Sao_Paulo,MA,Maranhão
5108,6494be310417200165ceeb5e,2931053,Tanque Novo,-13.5485,-42.4934,0,29,3991,77,America/Sao_Paulo,BA,Bahia
5158,6494be310417200165ceec2c,2313351,Tejuçuoca,-3.98831,-39.5799,0,23,1277,85,America/Sao_Paulo,CE,Ceará
5208,6494be310417200165cef17d,3168804,Tiradentes,-21.1102,-44.1744,0,31,5375,32,America/Sao_Paulo,MG,Minas Gerais
5258,6494be310417200165cef183,3169307,Três Corações,-21.6921,-45.2511,0,31,5385,35,America/Sao_Paulo,MG,Minas Gerais
5308,6494be310417200165cee9cc,1304260,Uarini,-2.99609,-65.1133,0,13,9849,97,America/Porto_Velho,AM,Amazonas
5358,6494be310417200165ceed74,5221601,Uruaçu,-14.5238,-49.1396,0,52,9633,62,America/Sao_Paulo,GO,Goiás
5408,6494be310417200165ceeb78,2933174,Varzedo,-12.9672,-39.3919,0,29,3049,75,America/Sao_Paulo,BA,Bahia
5458,6494be310417200165cefa4e,4323457,Vila Nova do Sul,-30.3461,-53.876,0,43,5795,55,America/Sao_Paulo,RS,Rio Grande do Sul
5508,6494be310417200165ceeb75,2933059,Várzea da Roça,-11.6005,-40.1328,0,29,3997,74,America/Sao_Paulo,BA,Bahia
5558,6494be310417200165cefbcb,3500501,Águas de Lindóia,-22.4733,-46.6314,0,35,6109,19,America/Sao_Paulo,SP,São Paulo
