index,_id,codigo_ibge,nome,latitude,longitude,capital,codigo_uf,siafi_id,ddd,fuso_horario,uf,nome_uf
39,6494be310417200165cef4b0,2200103,Agricolândia,-5.79676,-42.6664,0,22,1001,86,America/Sao_Paulo,PI,Piauí
89,6494be310417200165ceee67,3101706,Almenara,-16.1785,-40.6942,0,31,4033,33,America/Sao_Paulo,MG,Minas Gerais
139,6494be310417200165cefbd8,3501509,Alvinlândia,-22.4435,-49.7623,0,35,6129,14,America/Sao_Paulo,SP,São Paulo
189,6494be310417200165cefa5f,4200804,Anchieta,-26.5382,-53.3319,0,42,8015,49,America/Sao_Paulo,SC,Santa Catarina
239,6494be310417200165cef71f,3300159,Aperibé,-21.6252,-42.1017,0,33,2919,22,America/Sao_Paulo,RJ,Rio de Janeiro
289,6494be310417200165ceee7e,3103751,Araporã,-18.4357,-49.1847,0,31,2903,34,America/Sao_Paulo,MG,Minas Gerais
339,6494be310417200165ceeca0,5202353,Arenópolis,-16.3837,-51.5563,0,52,9671,64,America/Sao_Paulo,GO,Goiás
389,6494be310417200165cef87f,4301503,Augusto Pestana,-28.5172,-53.9883,0,43,8529,55,America/Sao_Paulo,RS,Rio Grande do Sul
439,6494be310417200165ceeb95,2301851,Banabuiú,-5.30454,-38.9132,0,23,1233,88,America/Sao_Paulo,CE,Ceará
489,6494be310417200165ceea03,2903102,Barra do Rocha,-14.2,-39.5991,0,29,3361,73,America/Sao_Paulo,BA,Bahia
539,6494be310417200165ceee95,3106002,Bela Vista de Minas,-19.8302,-43.0922,0,31,4119,31,America/Sao_Paulo,MG,Minas Gerais
589,6494be310417200165cefa7a,4202305,Biguaçu,-27.496,-48.6598,0,42,8045,48,America/Sao_Paulo,SC,Santa Catarina
639,6494be310417200165cef335,2502201,Bom Jesus,-6.81601,-38.6453,0,25,1945,83,America/Sao_Paulo,PB,Paraíba
689,6494be310417200165ceea11,2904100,Boquira,-12.8205,-42.7324,0,29,3381,77,America/Sao_Paulo,BA,Bahia
739,6494be310417200165cef33b,2502904,Brejo dos Santos,-6.37065,-37.8253,0,25,1959,83,America/Sao_Paulo,PB,Paraíba
789,6494be310417200165ceecb0,5204003,Cabeceiras,-15.7995,-46.9265,0,52,9279,61,America/Sao_Paulo,GO,Goiás
839,6494be310417200165ceeec4,3110103,Caiana,-20.6956,-41.9292,0,31,4201,32,America/Sao_Paulo,MG,Minas Gerais
889,6494be310417200165ceeeca,3110707,Cambuquira,-21.854,-45.2896,0,31,4213,35,America/Sao_Paulo,MG,Minas Gerais
939,6494be310417200165cef82a,1100700,Campo Novo de Rondônia,-10.5712,-63.6266,0,11,679,69,America/Porto_Velho,RO,Rondônia
989,6494be310417200165ceea2f,2906808,Cansanção,-10.6647,-39.4944,0,29,3435,75,America/Sao_Paulo,BA,Bahia
1039,6494be310417200165cef85a,1400209,Caracaraí,1.82766,-61.1304,0,14,303,95,America/Porto_Velho,RR,Roraima
1089,6494be310417200165ceeeec,3113800,Carmésia,-19.0877,-43.1382,0,31,4275,31,America/Sao_Paulo,MG,Minas Gerais
1139,6494be310417200165cef424,2604205,Catende,-8.67509,-35.7024,0,26,2383,81,America/Sao_Paulo,PE,Pernambuco
1189,6494be310417200165cef8c7,4305157,Cerro Grande,-27.6106,-53.1672,0,43,8437,55,America/Sao_Paulo,RS,Rio Grande do Sul
1239,6494be310417200165ceef0c,3116605,Cláudio,-20.4437,-44.7673,0,31,4331,37,America/Sao_Paulo,MG,Minas Gerais
1289,6494be310417200165cef2ad,1502707,Conceição do Araguaia,-8.26136,-49.2689,0,15,453,94,America/Sao_Paulo,PA,Pará
1339,6494be310417200165ceef27,3119005,Cordislândia,-21.7891,-45.6999,0,31,4379,35,America/Sao_Paulo,MG,Minas Gerais
1389,6494be310417200165ceef33,3120102,Couto de Magalhães de Minas,-18.0727,-43.4648,0,31,4401,38,America/Sao_Paulo,MG,Minas Gerais
1439,6494be310417200165cefc5d,3513504,Cubatão,-23.8911,-46.424,0,35,6371,13,America/Sao_Paulo,SP,São Paulo
1489,6494be310417200165ceef30,3119906,Córrego do Bom Jesus,-22.6269,-46.0241,0,31,4397,35,America/Sao_Paulo,MG,Minas Gerais
1539,6494be310417200165ceef4d,3122306,Divinópolis,-20.1446,-44.8912,0,31,4445,37,America/Sao_Paulo,MG,Minas Gerais
1589,6494be310417200165cef8ee,4306734,Doutor Maurício Cardoso,-27.5103,-54.3577,0,43,8425,55,America/Sao_Paulo,RS,Rio Grande do Sul
1639,6494be310417200165cef5f8,4107538,Entre Rios do Oeste,-24.7042,-54.2385,0,41,5529,45,America/Sao_Paulo,PR,Paraná
1689,6494be310417200165cef8ff,4307609,Estância Velha,-29.6535,-51.1843,0,43,8649,51,America/Sao_Paulo,RS,Rio Grande do Sul
1739,6494be310417200165cefc7c,3515657,Fernão,-22.3607,-49.5187,0,35,796,14,America/Sao_Paulo,SP,São Paulo
1789,6494be310417200165cef90e,4308433,Forquetinha,-29.3828,-52.0981,0,43,1142,51,America/Sao_Paulo,RS,Rio Grande do Sul
1839,6494be310417200165cef366,2506251,Gado Bravo,-7.58279,-35.7899,0,25,480,83,America/Sao_Paulo,PB,Paraíba
1889,6494be310417200165cefe83,1708304,Goianorte,-8.77413,-48.9313,0,17,9699,63,America/Sao_Paulo,TO,Tocantins
1939,6494be310417200165cef509,2204501,Guadalupe,-6.78285,-43.5594,0,22,1089,89,America/Sao_Paulo,PI,Piauí
1989,6494be310417200165cefc9a,3518503,Guareí,-23.3714,-48.1837,0,35,6471,15,America/Sao_Paulo,SP,São Paulo
2039,6494be310417200165ceecf1,5209903,Iaciara,-14.1011,-46.6335,0,52,9393,62,America/Sao_Paulo,GO,Goiás
2089,6494be310417200165ceefa3,3129509,Ibiá,-19.4749,-46.5474,0,31,4589,34,America/Sao_Paulo,MG,Minas Gerais
2139,6494be310417200165cef36c,2506707,Imaculada,-7.3889,-37.5079,0,25,2035,83,America/Sao_Paulo,PB,Paraíba
2189,6494be310417200165ceea84,2913804,Ipecaetá,-12.3028,-39.3069,0,29,3577,75,America/Sao_Paulo,BA,Bahia
2239,6494be310417200165cef62a,4110805,Iretama,-24.4253,-52.1012,0,41,7609,44,America/Sao_Paulo,PR,Paraná
2289,6494be310417200165ceea96,2915403,Itaju do Colônia,-15.1366,-39.7283,0,29,3609,73,America/Sao_Paulo,BA,Bahia
2339,6494be310417200165cefad6,4208401,Itapiranga,-27.1659,-53.7166,0,42,8165,49,America/Sao_Paulo,SC,Santa Catarina
2389,6494be310417200165ceefd4,3133808,Itaúna,-20.0818,-44.5801,0,31,4675,37,America/Sao_Paulo,MG,Minas Gerais
2439,6494be310417200165cee94f,2703403,Jacaré dos Homens,-9.63545,-37.2076,0,27,2767,82,America/Sao_Paulo,AL,Alagoas
2489,6494be310417200165cefb9b,2803401,Japoatã,-10.3477,-36.8045,0,28,3167,79,America/Sao_Paulo,SE,Sergipe
2539,6494be310417200165cef516,2205300,Jerumenha,-7.09128,-43.5033,0,22,1105,89,America/Sao_Paulo,PI,Piauí
2589,6494be310417200165cef51b,2205516,Juazeiro do Piauí,-5.17459,-41.6976,0,22,330,86,America/Sao_Paulo,PI,Piauí
2639,6494be310417200165cefae3,4209300,Lages,-27.815,-50.3259,0,42,8183,49,America/Sao_Paulo,SC,Santa Catarina
2689,6494be310417200165cef94c,4311429,Lajeado do Bugre,-27.6913,-53.1818,0,43,5983,55,America/Sao_Paulo,RS,Rio Grande do Sul
2739,6494be310417200165cef00f,3138625,Limeira do Oeste,-19.5512,-50.5815,0,31,2687,34,America/Sao_Paulo,MG,Minas Gerais
2789,6494be310417200165cef7c5,2407005,Luís Gomes,-6.40588,-38.3899,0,24,1739,84,America/Sao_Paulo,RN,Rio Grande do Norte
2839,6494be310417200165ceed0f,5212709,Mambaí,-14.4823,-46.1165,0,52,9449,62,America/Sao_Paulo,GO,Goiás
2889,6494be310417200165cef956,4311791,Maratá,-29.5457,-51.5573,0,43,6039,51,America/Sao_Paulo,RS,Rio Grande do Sul
2939,6494be310417200165cef028,3140530,Martins Soares,-20.2546,-41.8786,0,31,650,33,America/Sao_Paulo,MG,Minas Gerais
2989,6494be310417200165cefd13,3529401,Mauá,-23.6677,-46.4613,0,35,6689,11,America/Sao_Paulo,SP,São Paulo
3039,6494be310417200165cefe97,1713205,Miracema do Tocantins,-9.56556,-48.393,0,17,9461,63,America/Sao_Paulo,TO,Tocantins
3089,6494be310417200165cef7cd,2407708,Montanhas,-6.48522,-35.2842,0,24,1753,84,America/Sao_Paulo,RN,Rio Grande do Norte
3139,6494be310417200165cef671,4116208,Morretes,-25.4744,-48.8345,0,41,7709,41,America/Sao_Paulo,PR,Paraná
3189,6494be310417200165cef051,3144003,Mutum,-19.8121,-41.4407,0,31,4879,33,America/Sao_Paulo,MG,Minas Gerais
3239,6494be310417200165cef85e,1400407,Normandia,3.8853,-59.6204,0,14,311,95,America/Porto_Velho,RR,Roraima
3289,6494be310417200165cefd3d,3533007,Nova Granada,-20.5321,-49.3123,0,35,6761,17,America/Sao_Paulo,SP,São Paulo
3339,6494be310417200165cef980,4313375,Nova Santa Rita,-29.8525,-51.2837,0,43,5757,51,America/Sao_Paulo,RS,Rio Grande do Sul
3389,6494be310417200165cefd44,3533601,Nuporanga,-20.7296,-47.7429,0,35,6773,16,America/Sao_Paulo,SP,São Paulo
3439,6494be310417200165cef684,4117404,Ourizona,-23.4053,-52.1964,0,41,7729,44,America/Sao_Paulo,PR,Paraná
3489,6494be310417200165cefd54,3535101,Palmares Paulista,-21.0854,-48.8037,0,35,6803,17,America/Sao_Paulo,SP,São Paulo
3539,6494be310417200165cef68c,4118105,Paranacity,-22.9297,-52.1549,0,41,7743,44,America/Sao_Paulo,PR,Paraná
3589,6494be310417200165cef082,3147709,Passa Tempo,-20.6539,-44.4926,0,31,4953,37,America/Sao_Paulo,MG,Minas Gerais
3639,6494be310417200165cefd63,3536505,Paulínia,-22.7542,-47.1488,0,35,6831,19,America/Sao_Paulo,SP,São Paulo
3689,6494be310417200165cef2e2,1505601,Peixe-Boi,-1.19382,-47.324,0,15,511,91,America/Sao_Paulo,PA,Pará
3739,6494be310417200165cef3a5,2511509,Pilar,-7.26403,-35.2523,0,25,2131,83,America/Sao_Paulo,PB,Paraíba
3789,6494be310417200165cef0a8,3150703,Pirajuba,-19.9092,-48.7027,0,31,5013,34,America/Sao_Paulo,MG,Minas Gerais
3839,6494be310417200165cefb1c,4213153,Planalto Alegre,-27.0704,-52.867,0,42,5593,49,America/Sao_Paulo,SC,Santa Catarina
3889,6494be310417200165ceed45,5218102,Portelândia,-17.3554,-52.6799,0,52,9557,64,America/Sao_Paulo,GO,Goiás
3939,6494be310417200165cef25f,5107008,Poxoréu,-15.8299,-54.4208,0,51,9139,66,America/Porto_Velho,MT,Mato Grosso
3989,6494be310417200165cefb27,4214102,Presidente Nereu,-27.2768,-49.3889,0,42,8277,47,America/Sao_Paulo,SC,Santa Catarina
4039,6494be310417200165cef261,5107065,Querência,-12.6093,-52.1821,0,51,97,66,America/Porto_Velho,MT,Mato Grosso
4089,6494be310417200165cef6bc,4121604,Renascença,-26.1588,-52.9703,0,41,7809,46,America/Sao_Paulo,PR,Paraná
4139,6494be310417200165cef0d2,3154606,Ribeirão das Neves,-19.7621,-44.0844,0,31,5091,31,America/Sao_Paulo,MG,Minas Gerais
4189,6494be310417200165cefebc,1718758,Rio Sono,-9.35002,-47.888,0,17,9679,63,America/Sao_Paulo,TO,Tocantins
4239,6494be310417200165cef860,1400472,Rorainópolis,0.939956,-60.4389,0,14,36,95,America/Porto_Velho,RR,Roraima
4289,6494be310417200165cef0ec,3157104,Salto da Divisa,-16.0063,-39.9391,0,31,5141,33,America/Sao_Paulo,MG,Minas Gerais
4339,6494be310417200165cef0f1,3157336,Santa Cruz de Minas,-21.1241,-44.2202,0,31,702,32,America/Sao_Paulo,MG,Minas Gerais
4389,6494be310417200165cef6d7,4123824,Santa Lúcia,-25.4104,-53.5638,0,41,5469,45,America/Sao_Paulo,PR,Paraná
4439,6494be310417200165cefec2,1718907,Santa Rosa do Tocantins,-11.4474,-48.1216,0,17,9729,63,America/Sao_Paulo,TO,Tocantins
4489,6494be310417200165cef9d8,4317400,Santiago,-29.1897,-54.8666,0,43,8851,55,America/Sao_Paulo,RS,Rio Grande do Sul
4539,6494be310417200165cef6e2,4124509,Santo Inácio,-22.6957,-51.7969,0,41,7865,44,America/Sao_Paulo,PR,Paraná
4589,6494be310417200165cef15c,3165800,Senador José Bento,-22.1633,-46.1792,0,31,5315,35,America/Sao_Paulo,MG,Minas Gerais
4639,6494be310417200165ceeb55,2930501,Serrinha,-11.6584,-39.01,0,29,3909,75,America/Sao_Paulo,BA,Bahia
4689,6494be310417200165cef582,2210904,Socorro do Piauí,-7.86773,-42.4922,0,22,1217,89,America/Sao_Paulo,PI,Piauí
4739,6494be310417200165cef11a,3160900,São Brás do Suaçuí,-20.6242,-43.9515,0,31,5217,31,America/Sao_Paulo,MG,Minas Gerais
4789,6494be310417200165cef11d,3161056,São Félix de Minas,-18.5959,-41.4889,0,31,712,33,America/Sao_Paulo,MG,Minas Gerais
4839,6494be310417200165cef6ed,4125456,São José das Palmeiras,-24.8369,-54.0572,0,41,8471,45,America/Sao_Paulo,PR,Paraná
4889,6494be310417200165cefb49,4216305,São João Batista,-27.2772,-48.8474,0,42,8321,48,America/Sao_Paulo,SC,Santa Catarina
4939,6494be310417200165cef9f2,4318705,São Leopoldo,-29.7545,-51.1498,0,43,8877,51,America/Sao_Paulo,RS,Rio Grande do Sul
4989,6494be310417200165ceed64,5220280,São Patrício,-15.35,-49.818,0,52,1064,62,America/Sao_Paulo,GO,Goiás
5039,6494be310417200165cef150,3164902,São Sebastião do Rio Verde,-22.2183,-44.9761,0,31,5297,35,America/Sao_Paulo,MG,Minas Gerais
5089,6494be310417200165cef309,1507953,Tailândia,-2.94584,-48.9489,0,15,395,91,America/Sao_Paulo,PA,Pará
5139,6494be310417200165cefe22,3553906,Tarabai,-22.3016,-51.5621,0,35,7179,18,America/Sao_Paulo,SP,São Paulo
5189,6494be310417200165cef850,1101609,Theobroma,-10.2483,-62.3538,0,11,975,69,America/Porto_Velho,RO,Rondônia
5239,6494be310417200165ceeb67,2931806,Tremedal,-14.9736,-41.4142,0,29,3935,77,America/Sao_Paulo,BA,Bahia
5289,6494be310417200165cef4a7,2615904,Tuparetama,-7.6003,-37.3165,0,26,2617,87,America/Sao_Paulo,PE,Pernambuco
5339,6494be310417200165cef190,3170404,Unaí,-16.3592,-46.9022,0,31,5407,38,America/Sao_Paulo,MG,Minas Gerais
5389,6494be310417200165cefe3f,3556305,Valparaíso,-21.2229,-50.8699,0,35,7227,18,America/Sao_Paulo,SP,São Paulo
5439,6494be310417200165ceee51,2112803,Viana,-3.20451,-44.9912,0,21,949,98,America/Sao_Paulo,MA,Maranhão
5489,6494be310417200165ceee53,2112902,Vitória do Mearim,-3.45125,-44.8643,0,21,951,98,America/Sao_Paulo,MA,Maranhão
5539,6494be310417200165cef1ab,5000203,Água Clara,-20.4452,-52.879,0,50,9003,67,America/Porto_Velho,MS,Mato Grosso do Sul
